Data/Observations/TDM_BEIDOU_38091_2022_11_02_SCUDO.kvn

CCSDS_TDM_VERS = 2.0
CREATION_DATE = 2023-06-07T10:49:13
ORIGINATOR = S5LAB (Simone)

META_START
TIME_SYSTEM = UTC
START_TIME = 2022-11-02T18:32:00
STOP_TIME = 2022-11-02T20:18:01
PARTICIPANT_1 = SCUDO
PARTICIPANT_2 = 38091
MODE = SEQUENTIAL
PATH = 1,2
ANGLE_TYPE = RADEC
REFERENCE_FRAME = EME2000
META_STOP

DATA_START
ANGLE_1 = 2022-11-02T18:32:00.432000 23.4115
ANGLE_2 = 2022-11-02T18:32:00.432000 -7.8722
ANGLE_1 = 2022-11-02T18:33:01.201000 23.665
ANGLE_2 = 2022-11-02T18:33:01.201000 -7.8663
ANGLE_1 = 2022-11-02T18:35:00.756000 24.1657
ANGLE_2 = 2022-11-02T18:35:00.756000 -7.855
ANGLE_1 = 2022-11-02T18:36:00.570000 24.416
ANGLE_2 = 2022-11-02T18:36:00.570000 -7.8496
ANGLE_1 = 2022-11-02T18:37:00.372000 24.6671
ANGLE_2 = 2022-11-02T18:37:00.372000 -7.8438
ANGLE_1 = 2022-11-02T18:38:01.201000 24.9217
ANGLE_2 = 2022-11-02T18:38:01.201000 -7.838
ANGLE_1 = 2022-11-02T18:39:01.037000 25.1725
ANGLE_2 = 2022-11-02T18:39:01.037000 -7.8321
ANGLE_1 = 2022-11-02T18:40:00.685000 25.4216
ANGLE_2 = 2022-11-02T18:40:00.685000 -7.8265
ANGLE_1 = 2022-11-02T18:41:00.408000 25.6719
ANGLE_2 = 2022-11-02T18:41:00.408000 -7.8208
ANGLE_1 = 2022-11-02T18:43:00.959000 26.1767
ANGLE_2 = 2022-11-02T18:43:00.959000 -7.8086
ANGLE_1 = 2022-11-02T18:44:00.688000 26.4264
ANGLE_2 = 2022-11-02T18:44:00.688000 -7.8027
ANGLE_1 = 2022-11-02T18:45:00.567000 26.6773
ANGLE_2 = 2022-11-02T18:45:00.567000 -7.797
ANGLE_1 = 2022-11-02T18:46:00.426000 26.9277
ANGLE_2 = 2022-11-02T18:46:00.426000 -7.7911
ANGLE_1 = 2022-11-02T18:47:01.167000 27.1828
ANGLE_2 = 2022-11-02T18:47:01.167000 -7.7849
ANGLE_1 = 2022-11-02T18:48:01.049000 27.4332
ANGLE_2 = 2022-11-02T18:48:01.049000 -7.7787
ANGLE_1 = 2022-11-02T18:49:00.911000 27.6841
ANGLE_2 = 2022-11-02T18:49:00.911000 -7.7726
ANGLE_1 = 2022-11-02T18:50:00.848000 27.9338
ANGLE_2 = 2022-11-02T18:50:00.848000 -7.7664
ANGLE_1 = 2022-11-02T18:51:00.716000 28.1843
ANGLE_2 = 2022-11-02T18:51:00.716000 -7.7605
ANGLE_1 = 2022-11-02T18:52:00.496000 28.4354
ANGLE_2 = 2022-11-02T18:52:00.496000 -7.7542
ANGLE_1 = 2022-11-02T18:53:01.128000 28.6896
ANGLE_2 = 2022-11-02T18:53:01.128000 -7.748
ANGLE_1 = 2022-11-02T18:54:00.973000 28.9395
ANGLE_2 = 2022-11-02T18:54:00.973000 -7.7418
ANGLE_1 = 2022-11-02T18:55:00.732000 29.1903
ANGLE_2 = 2022-11-02T18:55:00.732000 -7.7354
ANGLE_1 = 2022-11-02T18:56:00.628000 29.4406
ANGLE_2 = 2022-11-02T18:56:00.628000 -7.7292
ANGLE_1 = 2022-11-02T18:57:00.354000 29.6899
ANGLE_2 = 2022-11-02T18:57:00.354000 -7.723
ANGLE_1 = 2022-11-02T18:58:01.234000 29.9456
ANGLE_2 = 2022-11-02T18:58:01.234000 -7.7165
ANGLE_1 = 2022-11-02T18:59:00.871000 30.1945
ANGLE_2 = 2022-11-02T18:59:00.871000 -7.7099
ANGLE_1 = 2022-11-02T19:01:01.332000 30.699
ANGLE_2 = 2022-11-02T19:01:01.332000 -7.6971
ANGLE_1 = 2022-11-02T19:02:01.090000 30.9497
ANGLE_2 = 2022-11-02T19:02:01.090000 -7.6908
ANGLE_1 = 2022-11-02T19:03:00.878000 31.2005
ANGLE_2 = 2022-11-02T19:03:00.878000 -7.6843
ANGLE_1 = 2022-11-02T19:06:01.222000 31.9554
ANGLE_2 = 2022-11-02T19:06:01.222000 -7.6644
ANGLE_1 = 2022-11-02T19:07:00.972000 32.2055
ANGLE_2 = 2022-11-02T19:07:00.972000 -7.6577
ANGLE_1 = 2022-11-02T19:08:00.725000 32.4552
ANGLE_2 = 2022-11-02T19:08:00.725000 -7.651
ANGLE_1 = 2022-11-02T19:09:00.561000 32.7057
ANGLE_2 = 2022-11-02T19:09:00.561000 -7.6444
ANGLE_1 = 2022-11-02T19:10:01.268000 32.9595
ANGLE_2 = 2022-11-02T19:10:01.268000 -7.6377
ANGLE_1 = 2022-11-02T19:11:01.103000 33.2105
ANGLE_2 = 2022-11-02T19:11:01.103000 -7.6308
ANGLE_1 = 2022-11-02T19:12:01.046000 33.4612
ANGLE_2 = 2022-11-02T19:12:01.046000 -7.624
ANGLE_1 = 2022-11-02T19:13:00.755000 33.7113
ANGLE_2 = 2022-11-02T19:13:00.755000 -7.6172
ANGLE_1 = 2022-11-02T19:14:00.622000 33.9619
ANGLE_2 = 2022-11-02T19:14:00.622000 -7.6104
ANGLE_1 = 2022-11-02T19:16:01.231000 34.4669
ANGLE_2 = 2022-11-02T19:16:01.231000 -7.597
ANGLE_1 = 2022-11-02T19:17:00.993000 34.7168
ANGLE_2 = 2022-11-02T19:17:00.993000 -7.5901
ANGLE_1 = 2022-11-02T19:18:00.704000 34.9675
ANGLE_2 = 2022-11-02T19:18:00.704000 -7.5832
ANGLE_1 = 2022-11-02T19:20:00.289000 35.4673
ANGLE_2 = 2022-11-02T19:20:00.289000 -7.5693
ANGLE_1 = 2022-11-02T19:21:00.973000 35.7214
ANGLE_2 = 2022-11-02T19:21:00.973000 -7.5622
ANGLE_1 = 2022-11-02T19:22:00.895000 35.972
ANGLE_2 = 2022-11-02T19:22:00.895000 -7.5553
ANGLE_1 = 2022-11-02T19:23:00.845000 36.2235
ANGLE_2 = 2022-11-02T19:23:00.845000 -7.548
ANGLE_1 = 2022-11-02T19:24:00.491000 36.4726
ANGLE_2 = 2022-11-02T19:24:00.491000 -7.5411
ANGLE_1 = 2022-11-02T19:26:01.223000 36.9789
ANGLE_2 = 2022-11-02T19:26:01.223000 -7.5269
ANGLE_1 = 2022-11-02T19:27:01.012000 37.2289
ANGLE_2 = 2022-11-02T19:27:01.012000 -7.5196
ANGLE_1 = 2022-11-02T19:28:00.868000 37.4789
ANGLE_2 = 2022-11-02T19:28:00.868000 -7.5122
ANGLE_1 = 2022-11-02T19:35:00.465000 39.2349
ANGLE_2 = 2022-11-02T19:35:00.465000 -7.4614
ANGLE_1 = 2022-11-02T19:36:01.060000 39.4887
ANGLE_2 = 2022-11-02T19:36:01.060000 -7.454
ANGLE_1 = 2022-11-02T19:37:00.784000 39.7394
ANGLE_2 = 2022-11-02T19:37:00.784000 -7.4466
ANGLE_1 = 2022-11-02T19:40:01.237000 40.4944
ANGLE_2 = 2022-11-02T19:40:01.237000 -7.424
ANGLE_1 = 2022-11-02T19:42:00.829000 40.9947
ANGLE_2 = 2022-11-02T19:42:00.829000 -7.4094
ANGLE_1 = 2022-11-02T19:44:00.561000 41.4959
ANGLE_2 = 2022-11-02T19:44:00.561000 -7.3939
ANGLE_1 = 2022-11-02T19:45:00.338000 41.7459
ANGLE_2 = 2022-11-02T19:45:00.338000 -7.3866
ANGLE_1 = 2022-11-02T19:49:01.112000 42.7543
ANGLE_2 = 2022-11-02T19:49:01.112000 -7.3559
ANGLE_1 = 2022-11-02T19:50:00.947000 43.0041
ANGLE_2 = 2022-11-02T19:50:00.947000 -7.348
ANGLE_1 = 2022-11-02T19:51:00.731000 43.2548
ANGLE_2 = 2022-11-02T19:51:00.731000 -7.3404
ANGLE_1 = 2022-11-02T19:53:00.387000 43.7551
ANGLE_2 = 2022-11-02T19:53:00.387000 -7.3248
ANGLE_1 = 2022-11-02T19:55:00.959000 44.26
ANGLE_2 = 2022-11-02T19:55:00.959000 -7.3093
ANGLE_1 = 2022-11-02T19:58:01.284000 45.0143
ANGLE_2 = 2022-11-02T19:58:01.284000 -7.2852
ANGLE_1 = 2022-11-02T19:59:01.131000 45.2652
ANGLE_2 = 2022-11-02T19:59:01.131000 -7.2773
ANGLE_1 = 2022-11-02T20:00:01.003000 45.5157
ANGLE_2 = 2022-11-02T20:00:01.003000 -7.2698
ANGLE_1 = 2022-11-02T20:01:00.789000 45.7658
ANGLE_2 = 2022-11-02T20:01:00.789000 -7.2619
ANGLE_1 = 2022-11-02T20:03:00.314000 46.2662
ANGLE_2 = 2022-11-02T20:03:00.314000 -7.2459
ANGLE_1 = 2022-11-02T20:04:01.118000 46.5203
ANGLE_2 = 2022-11-02T20:04:01.118000 -7.2375
ANGLE_1 = 2022-11-02T20:05:00.875000 46.7705
ANGLE_2 = 2022-11-02T20:05:00.875000 -7.2297
ANGLE_1 = 2022-11-02T20:06:00.570000 47.0204
ANGLE_2 = 2022-11-02T20:06:00.570000 -7.2215
ANGLE_1 = 2022-11-02T20:07:00.341000 47.2704
ANGLE_2 = 2022-11-02T20:07:00.341000 -7.2135
ANGLE_1 = 2022-11-02T20:08:01.155000 47.5252
ANGLE_2 = 2022-11-02T20:08:01.155000 -7.2052
ANGLE_1 = 2022-11-02T20:09:00.981000 47.7755
ANGLE_2 = 2022-11-02T20:09:00.981000 -7.1975
ANGLE_1 = 2022-11-02T20:10:00.795000 48.0257
ANGLE_2 = 2022-11-02T20:10:00.795000 -7.1891
ANGLE_1 = 2022-11-02T20:11:00.587000 48.2756
ANGLE_2 = 2022-11-02T20:11:00.587000 -7.1811
ANGLE_1 = 2022-11-02T20:12:00.387000 48.526
ANGLE_2 = 2022-11-02T20:12:00.387000 -7.1729
ANGLE_1 = 2022-11-02T20:13:01.240000 48.7805
ANGLE_2 = 2022-11-02T20:13:01.240000 -7.1645
ANGLE_1 = 2022-11-02T20:15:00.902000 49.2816
ANGLE_2 = 2022-11-02T20:15:00.902000 -7.1484
ANGLE_1 = 2022-11-02T20:16:00.722000 49.532
ANGLE_2 = 2022-11-02T20:16:00.722000 -7.1396
ANGLE_1 = 2022-11-02T20:17:00.488000 49.7819
ANGLE_2 = 2022-11-02T20:17:00.488000 -7.1317
ANGLE_1 = 2022-11-02T20:18:01.234000 50.0365
ANGLE_2 = 2022-11-02T20:18:01.234000 -7.1233
DATA_STOP